status,name,latitude,longitude,notes
Ok,Alison road (Randwick),-33.906183,151.231098,#mm:img:http://www.rms.nsw.gov.au/trafficreports/cameras/camera_images/alisonrd_randwick.jpg:ref<60>
Ok,Anzac Bridge,-33.873712,151.212559,#mm:img:http://www.rms.nsw.gov.au/trafficreports/cameras/camera_images/anzacbr.jpg:ref<60>
Ok,Anzac Parade (Moore Park),-33.895319,151.22155,#mm:img:http://www.rms.nsw.gov.au/trafficreports/cameras/camera_images/anzacpde.jpg:ref<60>
Ok,City West Link,-33.871672,151.171832,#mm:img:http://www.rms.nsw.gov.au/trafficreports/cameras/camera_images/citywestlink.jpg:ref<60>
Ok,Eastern Distributor,-33.90987,151.212966,#mm:img:http://www.rms.nsw.gov.au/trafficreports/cameras/camera_images/easterndist.jpg:ref<60>
Ok,General Holmes Drive (Botany),-33.944464,151.188011,#mm:img:http://www.rms.nsw.gov.au/trafficreports/cameras/camera_images/ghd_airport.jpg:ref<60>
Ok,George Street (Railway Square),-33.882868,151.20419,#mm:img:http://www.rms.nsw.gov.au/trafficreports/cameras/camera_images/georgest.jpg:ref<60>
Ok,Gladesville Bridge (Drummonyne),-33.847278,151.151973,#mm:img:http://www.rms.nsw.gov.au/trafficreports/cameras/camera_images/gladesvillebr.jpg:ref<60>
Ok,Hume Highway (Ashfield),-33.888444,151.117501,#mm:img:http://www.rms.nsw.gov.au/trafficreports/cameras/camera_images/humehwy_ashfield.jpg:ref<60>
Ok,Hume Highway (Strathfield),-33.886021,151.068192,#mm:img:http://www.rms.nsw.gov.au/trafficreports/cameras/camera_images/humehwy_strathfield.jpg:ref<60>
Ok,King Georges Road (Beverly hills),-33.952616,151.083555,#mm:img:http://www.rms.nsw.gov.au/trafficreports/cameras/camera_images/knggrd_beverlyhills.jpg:ref<60>
Ok,M4 Western Motorway (Olympic Park),-33.855591,151.064415,#mm:img:http://www.rms.nsw.gov.au/trafficreports/cameras/camera_images/m4_olympic.jpg:ref<60>
Ok,M5 East (Beverly Hills),-33.943146,151.077032,#mm:img:http://www.rms.nsw.gov.au/trafficreports/cameras/camera_images/m5east.jpg:ref<60>
Ok,Parramatta Road (Leichhardt),-33.889014,151.152949,#mm:img:http://www.rms.nsw.gov.au/trafficreports/cameras/camera_images/parrard_leichhardt.jpg:ref<60>
Ok,Parramatta Road (Silverwater),-33.844934,151.042013,#mm:img:http://www.rms.nsw.gov.au/trafficreports/cameras/camera_images/parrard_silverwater.jpg:ref<60>
Ok,Parramatta Road (Strathfield),-33.86646,151.09364,#mm:img:http://www.rms.nsw.gov.au/trafficreports/cameras/camera_images/parrard_strathfield.jpg:ref<60>
Ok,Princes Highway (Blakehurst),-33.987709,151.111708,#mm:img:http://www.rms.nsw.gov.au/trafficreports/cameras/camera_images/princes_blakehurst.jpg:ref<60>
Ok,Princes Highway (Kogarah),-33.964363,151.137114,#mm:img:http://www.rms.nsw.gov.au/trafficreports/cameras/camera_images/princes_kogarah.jpg:ref<60>
Ok,Princes Highway (St Peters),-33.915515,151.174579,#mm:img:http://www.rms.nsw.gov.au/trafficreports/cameras/camera_images/princes_stpeters.jpg:ref<60>
Ok,Southern Cross Drive (Eastlakes),-33.935776,151.207345,#mm:img:http://www.rms.nsw.gov.au/trafficreports/cameras/camera_images/scd_eastlakes.jpg:ref<60>
Ok,Syd Einfeld Drive (Bondi Junction),-33.890866,151.248457,#mm:img:http://www.rms.nsw.gov.au/trafficreports/cameras/camera_images/sed_bondijunction.jpg:ref<60>
Ok,Sydney Harbour Bridge,-33.851029,151.211464,#mm:img:http://www.rms.nsw.gov.au/trafficreports/cameras/camera_images/harbourbridge.jpg:ref<60>
Ok,The Grand Parade (Brighton-Le-Sands),-33.960803,151.156168,#mm:img:http://www.rms.nsw.gov.au/trafficreports/cameras/camera_images/grandpde_bls.jpg:ref<60>
Ok,Willam Street (East Sydney),-33.873712,151.212559,#mm:img:http://www.rms.nsw.gov.au/trafficreports/cameras/camera_images/williamst.jpg:ref<60>
Ok,Beecroft Road (Epping),-33.770853,151.080848,#mm:img:http://www.rms.nsw.gov.au/trafficreports/cameras/camera_images/beecroftrd_epping.jpg:ref<60>
Ok,Cumberland Highway (Carlingford),-33.779647,151.052306,#mm:img:http://www.rms.nsw.gov.au/trafficreports/cameras/camera_images/cumberlandhwy_carlingford.jpg:ref<60>
Ok,Epping road (Lane Cove),-33.810674,151.163632,#mm:img:http://www.rms.nsw.gov.au/trafficreports/cameras/camera_images/eppingrd_lanecove.jpg:ref<60>
Ok,Epping road (Macquarie Park),-33.777703,151.108314,#mm:img:http://www.rms.nsw.gov.au/trafficreports/cameras/camera_images/eppingrd_macquariepark.jpg:ref<60>
Ok,Falcon Street (Crows Nest),-33.827628,151.200723,#mm:img:http://www.rms.nsw.gov.au/trafficreports/cameras/camera_images/falconst_crowsnest.jpg:ref<60>
Ok,Gore Hill Freeway (Artarmon),-33.817235,151.201517,#mm:img:http://www.rms.nsw.gov.au/trafficreports/cameras/camera_images/gorehillfwy_artarmon.jpg:ref<60>
Ok,M2 (Pennant Hills),-33.758813,151.049345,#mm:img:http://www.rms.nsw.gov.au/trafficreports/cameras/camera_images/m2_pennanthills.jpg:ref<60>
Ok,M2 (Ryde),-33.781947,151.131617,#mm:img:http://www.rms.nsw.gov.au/trafficreports/cameras/camera_images/m2_ryde.jpg:ref<60>
Ok,Manly Road (Seaforth),-33.801831,151.246278,#mm:img:http://www.rms.nsw.gov.au/trafficreports/cameras/camera_images/manlyrd.jpg:ref<60>
Ok,Military Road (Neutral Bay),-33.831558,151.222374,#mm:img:http://www.rms.nsw.gov.au/trafficreports/cameras/camera_images/militaryrd_neutralbay.jpg:ref<60>
Ok,Pacific Highway (Chatswood),-33.798407,151.178524,#mm:img:http://www.rms.nsw.gov.au/trafficreports/cameras/camera_images/pacific_chats.jpg:ref<60>
Ok,Pacific Highway (Pymble),-33.750838,151.147217,#mm:img:http://www.rms.nsw.gov.au/trafficreports/cameras/camera_images/pacific_pymble.jpg:ref<60>
Ok,Pennant Hills road (Thornleigh),-33.730836,151.081317,#mm:img:http://www.rms.nsw.gov.au/trafficreports/cameras/camera_images/pennanthillsrd_thornleigh.jpg:ref<60>
Ok,Pittwater Road (Narrabeen),-33.709936,151.295768,#mm:img:http://www.rms.nsw.gov.au/trafficreports/cameras/camera_images/pittwaterrd_narrabeen.jpg:ref<60>
Ok,Ryde Bridge (Ryde),-33.822218,151.096943,#mm:img:http://www.rms.nsw.gov.au/trafficreports/cameras/camera_images/rydebridge.jpg:ref<60>
Ok,Stewart Street (Eastwood),-33.796482,151.065181,#mm:img:http://www.rms.nsw.gov.au/trafficreports/cameras/camera_images/stewartst_eastwood.jpg:ref<60>
Ok,Victoria Road (Gladesville),-33.830132,151.126716,#mm:img:http://www.rms.nsw.gov.au/trafficreports/cameras/camera_images/victoriard_gladesville.jpg:ref<60>
Ok,Warringah Freeway (North Sydney),-33.833474,151.211967,#mm:img:http://www.rms.nsw.gov.au/trafficreports/cameras/camera_images/warringahfwy.jpg:ref<60>
Ok,Warringah Road (Forestville),-33.771103,151.205346,#mm:img:http://www.rms.nsw.gov.au/trafficreports/cameras/camera_images/warringahrd_forestville.jpg:ref<60>
Ok,Warringah Road (Frenchs Forest),-33.751587,151.22661,#mm:img:http://www.rms.nsw.gov.au/trafficreports/cameras/camera_images/warringahrd_frenchsforest.jpg:ref<60>
Ok,Church Street (Parramatta),-33.808535,151.005228,#mm:img:http://www.rms.nsw.gov.au/trafficreports/cameras/camera_images/churchst_parra.jpg:ref<60>
Ok,Cumberland Highway (Merrylands),-33.830266,150.960385,#mm:img:http://www.rms.nsw.gov.au/trafficreports/cameras/camera_images/cumberlandhwy_merrylands.jpg:ref<60>
Ok,Great Western Highway (Hazelbrook),-33.720877,150.451604,#mm:img:http://www.rms.nsw.gov.au/trafficreports/cameras/camera_images/greatwesternhwy_hazelbrook.jpg:ref<60>
Ok,James Ruse Drive (Rosehill),-33.81916,151.021879,#mm:img:http://www.rms.nsw.gov.au/trafficreports/cameras/camera_images/jrd_rosehill.jpg:ref<60>
Ok,M4 Western Motorway (Auburn),-33.838643,151.035894,#mm:img:http://www.rms.nsw.gov.au/trafficreports/cameras/camera_images/m4_auburn.jpg:ref<60>
Ok,M4 Western Motorway (Mays Hill),-33.816219,150.963539,#mm:img:http://www.rms.nsw.gov.au/trafficreports/cameras/camera_images/m4_mayshill.jpg:ref<60>
Ok,M4 Western Motorway (Minchinbury),-33.795893,150.847045,#mm:img:http://www.rms.nsw.gov.au/trafficreports/cameras/camera_images/m4_minchinbury.jpg:ref<60>
Ok,M4 Western Motorway (Prospect),-33.80545,150.915882,#mm:img:http://www.rms.nsw.gov.au/trafficreports/cameras/camera_images/m4_prospect.jpg:ref<60>
Ok,M4 Western Motorway (St Marys),-33.785015,150.770785,#mm:img:http://www.rms.nsw.gov.au/trafficreports/cameras/camera_images/m4_stmarys.jpg:ref<60>
Ok,M7 (Glenwood),-33.737884,150.917856,#mm:img:http://www.rms.nsw.gov.au/trafficreports/cameras/camera_images/m7_glenwood.jpg:ref<60>
Ok,M7 at the Horsley Drive (Horsley Park),-33.841691,150.855414,#mm:img:http://www.rms.nsw.gov.au/trafficreports/cameras/camera_images/m7_horsleydr.jpg:ref<60>
Ok,Old Windsor Road (Beaumont Hills),-33.704224,150.930172,#mm:img:http://www.rms.nsw.gov.au/trafficreports/cameras/camera_images/oldwindsorrd.jpg:ref<60>
Ok,Old Windsor Road (Winston Hills),-33.765627,150.958279,#mm:img:http://www.rms.nsw.gov.au/trafficreports/cameras/camera_images/oldwindsorrd_winstonhills.jpg:ref<60>
Ok,Parramatta Road (Parramatta),-33.827467,151.004584,#mm:img:http://www.rms.nsw.gov.au/trafficreports/cameras/camera_images/parrard_parra.jpg:ref<60>
Ok,Seven Hills Road (Seven Hills),-33.767982,150.943215,#mm:img:http://www.rms.nsw.gov.au/trafficreports/cameras/camera_images/sevenhillsrd_sevenhills.jpg:ref<60>
Ok,Silverwater Road (Silverwater),-33.843117,151.043834,#mm:img:http://www.rms.nsw.gov.au/trafficreports/cameras/camera_images/silverwaterrd_silverwater.jpg:ref<60>
Ok,5 Ways (Miranda),-34.029758,151.105353,#mm:img:http://www.rms.nsw.gov.au/trafficreports/cameras/camera_images/5ways.jpg:ref<60>
Ok,A1 Princes Motorway (Heathcote),-34.079429,151.010464,#mm:img:http://www.rms.nsw.gov.au/trafficreports/cameras/camera_images/f6_waterfall.jpg:ref<60>
Ok,Audley Road (Audley Weir),-34.073049,151.056687,#mm:img:http://www.rms.nsw.gov.au/trafficreports/cameras/camera_images/audleyrd_audley.jpg:ref<60>
Ok,Hume Highway (Bankstown),-33.905827,151.040336,#mm:img:http://www.rms.nsw.gov.au/trafficreports/cameras/camera_images/humehwy_bankstown.jpg:ref<60>
Ok,Hume Highway (Liverpool),-33.915069,150.920624,#mm:img:http://www.rms.nsw.gov.au/trafficreports/cameras/camera_images/humehwy_liverpool.jpg:ref<60>
Ok,Hume Highway (Villawood),-33.889423,150.973066,#mm:img:http://www.rms.nsw.gov.au/trafficreports/cameras/camera_images/humehwy_villawood.jpg:ref<60>
Ok,Hume Highway (Campbelltown),-34.061939,150.785333,#mm:img:http://www.rms.nsw.gov.au/trafficreports/cameras/camera_images/humehwy_campbelltown.jpg:ref<60>
Ok,Hume Highway (St Andrews),-34.029687,150.823982,#mm:img:http://www.rms.nsw.gov.au/trafficreports/cameras/camera_images/humehwy_standrews.jpg:ref<60>
Ok,M5 (Liverpool),-33.938126,150.913521,#mm:img:http://www.rms.nsw.gov.au/trafficreports/cameras/camera_images/m5_liverpool.jpg:ref<60>
Ok,M5 (Milperra),-33.94482,150.9824,#mm:img:http://www.rms.nsw.gov.au/trafficreports/cameras/camera_images/m5_milperra.jpg:ref<60>
Ok,M5 (Padstow),-33.940191,151.035573,#mm:img:http://www.rms.nsw.gov.au/trafficreports/cameras/camera_images/m5_padstow.jpg:ref<60>
Ok,M5 / M7,-33.956318,150.87655,#mm:img:http://www.rms.nsw.gov.au/trafficreports/cameras/camera_images/m5_m7.jpg:ref<60>
Ok,Princes Highway (Sutherland),-34.034968,151.066214,#mm:img:http://www.rms.nsw.gov.au/trafficreports/cameras/camera_images/princeshwy_sutherland.jpg:ref<60>
Ok,M1 Pacific Motorway (Hawkesbury River),-33.530735,151.200622,#mm:img:http://www.rms.nsw.gov.au/trafficreports/cameras/camera_images/f3_mooney.jpg:ref<60>
Ok,M1 Pacific Motorway (John Renshaw Drive),-32.813446,151.635722,#mm:img:http://www.rms.nsw.gov.au/trafficreports/cameras/camera_images/f3_johnrenshawdr.jpg:ref<60>
Ok,M1 Pacific Motorway (Kariong),-33.418296,151.294263,#mm:img:http://www.rms.nsw.gov.au/trafficreports/cameras/camera_images/f3_kariong.jpg:ref<60>
Ok,M1 Pacific Motorway (Mount White),-33.454789,151.205771,#mm:img:http://www.rms.nsw.gov.au/trafficreports/cameras/camera_images/f3_mountwhite.jpg:ref<60>
Ok,M1 Pacific Motorway (Ourimbah),-33.344726,151.369064,#mm:img:http://www.rms.nsw.gov.au/trafficreports/cameras/camera_images/f3_ourimbah.jpg:ref<60>
Ok,M1 Pacific Motorway (Sparks Road),-33.228637,151.422408,#mm:img:http://www.rms.nsw.gov.au/trafficreports/cameras/camera_images/f3_sparkesrd.jpg:ref<60>
Ok,M1 Pacific Motorway (Wahroonga),-33.718664,151.109988,#mm:img:http://www.rms.nsw.gov.au/trafficreports/cameras/camera_images/f3_wahroonga.jpg:ref<60>
Ok,M1 Pacific Motorway (Windy Banks),-33.635917,151.147572,#mm:img:http://www.rms.nsw.gov.au/trafficreports/cameras/camera_images/f3_windybanks.jpg:ref<60>
Ok,New England Highway (Hexam),-32.82129,151.682175,#mm:img:http://www.rms.nsw.gov.au/trafficreports/cameras/camera_images/newenglandhwy_hexham.jpg:ref<60>
Ok,Newcastle Road (Newcastle),-32.908884,151.704877,#mm:img:http://www.rms.nsw.gov.au/trafficreports/cameras/camera_images/newcastlelinkrd_newcastle.jpg:ref<60>
Ok,Kosciuszko road (Wilson's Valley),-36.350285,148.521374,#mm:img:http://www.rms.nsw.gov.au/trafficreports/cameras/camera_images/kosciuszkord_wilsonsvalley.jpg:ref<60>
Ok,M1 Princes Motorway (Mt Ousley),-34.39109,150.858184,#mm:img:http://www.rms.nsw.gov.au/trafficreports/cameras/camera_images/f6_mtousley.jpg:ref<60>
Ok,Princes Highway (Albion Park Rail),-34.556477,150.791724,#mm:img:http://www.rms.nsw.gov.au/trafficreports/cameras/camera_images/princeshwy_albionparkrail.jpg:ref<60>
Ok,Princes Highway (Wollongong),-34.41261,150.892446,#mm:img:http://www.rms.nsw.gov.au/trafficreports/cameras/camera_images/princeshwy_wollongong.jpg:ref<60>
Ok,Princes Highway (Blackhurst),-33.987744,151.111533,#mm:img:http://www.rms.nsw.gov.au/trafficreports/cameras/camera_images/princes_blakehurst.jpg:ref<60>
Ok,Aerodrome Road - Maroochydore -Adjacant to Caltex Service Station (looking north),-26.65889,153.096634,#mm:img:http://131940.qld.gov.au/DMR.Controls/WebCams/DisplayImage.ashx?FilePath=Sunshine_Coast/aerodrome.jpg:ref<60>
Ok,Albany Creek - Southpine Road / Eatons Crossing Road (North-East),-27.336105,152.960812,#mm:img:http://131940.qld.gov.au/DMR.Controls/WebCams/DisplayImage.ashx?FilePath=\Sunshine_Coast\MRNCHD-435.jpg:ref<60>
Ok,Alexandra Headland - Intersection of Sugar Road and Mooloolaba Road (North-East),-26.675558,153.096172,#mm:img:http://131940.qld.gov.au/DMR.Controls/WebCams/DisplayImage.ashx?FilePath=\Sunshine_Coast\MRNCHD-437.jpg:ref<60>
Ok,Archerfield - Beaudesert Road and Granard Road (East),-27.5585,153.0208,#mm:img:http://131940.qld.gov.au/DMR.Controls/WebCams/DisplayImage.ashx?FilePath=\Metropolitan\MRMETRO-1458.jpg:ref<60>
Ok,Archerfield - Granard Road and Ipswich Motorway (South),-27.556501,153.008057,#mm:img:http://131940.qld.gov.au/DMR.Controls/WebCams/DisplayImage.ashx?FilePath=Metropolitan/MRMetro-1223.jpg:ref<60>
Ok,Ashmore - Currumburra and Nerang-Southport Road (East),-27.976643,153.381287,#mm:img:http://131940.qld.gov.au/DMR.Controls/WebCams/DisplayImage.ashx?FilePath=Gold_Coast/currumburra-nerang_southport-east.jpg:ref<60>
Ok,Aspley - Gympie Road and Beams Road (North),-27.345362,153.011812,#mm:img:http://131940.qld.gov.au/DMR.Controls/WebCams/DisplayImage.ashx?FilePath=\Metropolitan\MRMETRO-1462.jpg:ref<60>
Ok,Bald Hills - Gateway Motorway and Bruce Highway (North),-27.301774,153.01672,#mm:img:http://131940.qld.gov.au/DMR.Controls/WebCams/DisplayImage.ashx?FilePath=\Metropolitan\MRMETRO-1461.jpg:ref<60>
Ok,Bargara - Bargara Road and Davidson Street (East),-24.819194,152.455296,#mm:img:http://131940.qld.gov.au/DMR.Controls/WebCams/DisplayImage.ashx?FilePath=\Wide_Bay\bargara-davidson-east.jpg:ref<60>
Ok,Bargara Road and Gahans Road - Kalkie (looking west),-24.851887,152.384125,#mm:img:http://131940.qld.gov.au/DMR.Controls/WebCams/DisplayImage.ashx?FilePath=Wide_Bay/bargara-gahans-west.jpg:ref<60>
Ok,Beenleigh - Pacific Motorway M1 - Exit 34 (North),-27.70816,153.20608,#mm:img:http://131940.qld.gov.au/DMR.Controls/WebCams/DisplayImage.ashx?FilePath=\Gold_Coast\MRSCHD-305.jpg:ref<60>
Ok,Beenleigh - Pacific Motorway M1 - Logan River Bridge (North),-27.69803,153.19567,#mm:img:http://131940.qld.gov.au/DMR.Controls/WebCams/DisplayImage.ashx?FilePath=\Gold_Coast\MRSCHD-311.jpg:ref<60>
Ok,Bilinga - Gold Coast Highway and Terminal Drive (North),-28.16448,153.5168,#mm:img:http://131940.qld.gov.au/DMR.Controls/WebCams/DisplayImage.ashx?FilePath=\Gold_Coast\MRSCHD-312.jpg:ref<60>
NoURL,Blakeys Crossing Looking West Mt St John,-19.26192,146.7489,#mm:img:.\Plugins\Navigator\LiveTraffic\NoURL.png
Ok,Boat harbour Drive Pedestrian Crossing - Urraween (looking west),-25.288004,152.837128,#mm:img:http://131940.qld.gov.au/DMR.Controls/WebCams/DisplayImage.ashx?FilePath=Wide_Bay/boat_harbour_ped_west.jpg:ref<60>
Ok,Boondall - Sandgate Road and Beams Road (South),-27.3533,153.0568,#mm:img:http://131940.qld.gov.au/DMR.Controls/WebCams/DisplayImage.ashx?FilePath=\Metropolitan\MRMETRO-1457.jpg:ref<60>
Ok,Brighton - Houghton Highway Bridge - Deagon Deviation (North-East),-27.2828,153.063633,#mm:img:http://131940.qld.gov.au/DMR.Controls/WebCams/DisplayImage.ashx?FilePath=\Metropolitan\MRMETRO-1216.jpg:ref<60>
Ok,Browns Plains - Mount Lindesay Highway and Johnston Road (North),-27.66025,153.037796,#mm:img:http://131940.qld.gov.au/DMR.Controls/WebCams/DisplayImage.ashx?FilePath=Gold_Coast/EllenGrove_MtLindHwy_Nth.jpg:ref<60>
Ok,Bruce Highway - Burpengary - Uhlmann Road interchange (looking North),-27.139219,152.977859,#mm:img:http://131940.qld.gov.au/DMR.Controls/WebCams/DisplayImage.ashx?FilePath=Sunshine_Coast/bruce-uhlmann-north.jpg:ref<60>
Ok,Bruce Highway - Burpengary -Station Road interchange (looking North),-27.15329,152.977509,#mm:img:http://131940.qld.gov.au/DMR.Controls/WebCams/DisplayImage.ashx?FilePath=Sunshine_Coast/bruce_hwy_burpengary.jpg:ref<60>
Ok,Bruce Highway - Deception Bay- Deception Bay Road interchange (looking North),-27.178511,152.983917,#mm:img:http://131940.qld.gov.au/DMR.Controls/WebCams/DisplayImage.ashx?FilePath=Sunshine_Coast/bruce_hwy_d_bay.jpg:ref<60>
Ok,Bruce Highway - Gympie - Excelsior Road Intersection (looking North),-26.199619,152.666794,#mm:img:http://131940.qld.gov.au/DMR.Controls/WebCams/DisplayImage.ashx?FilePath=Wide_Bay/bruce_hwy-excelsior.jpg:ref<60>
Ok,Bruce Highway - Narangba - Boundary Road (looking south),-27.211779,152.99231,#mm:img:http://131940.qld.gov.au/DMR.Controls/WebCams/DisplayImage.ashx?FilePath=Sunshine_Coast/Bndry-Rd-Nrngba-sth.jpg:ref<60>
NoURL,Bruce Highway and Mount Low Parkway (North),-19.23947,146.664459,#mm:img:.\Plugins\Navigator\LiveTraffic\NoURL.png
Ok,Buderim - Burnett Street Pedestrian Crossing (West),-26.686,153.05019,#mm:img:http://131940.qld.gov.au/DMR.Controls/WebCams/DisplayImage.ashx?FilePath=\Sunshine_Coast\MRNCHD-507.jpg:ref<60>
Ok,Buderim - Mooloolaba Road / Gloucester Road intersection (West),-26.684308,153.055204,#mm:img:http://131940.qld.gov.au/DMR.Controls/WebCams/DisplayImage.ashx?FilePath=\Sunshine_Coast\MRNCHD-438.jpg:ref<60>
Ok,Bundall - Bundall and Ashmore Road (South),-28.011297,153.411804,#mm:img:http://131940.qld.gov.au/DMR.Controls/WebCams/DisplayImage.ashx?FilePath=Gold_Coast/bundall-ashmore-south.jpg:ref<60>
NoURL,Burdekin Bridge and Bruce Highway - Home Hill (looking North),-19.64327,147.397293,#mm:img:.\Plugins\Navigator\LiveTraffic\NoURL.png
Ok,Burleigh Heads - Gold Coast Highway and Reedy Creek Road (South),-28.08733,153.45017,#mm:img:http://131940.qld.gov.au/DMR.Controls/WebCams/DisplayImage.ashx?FilePath=\Gold_Coast\MRSCHD-292.jpg:ref<60>
Ok,Burleigh Waters - Bermuda / Christine Avenue (North),-28.0858,153.42557,#mm:img:http://131940.qld.gov.au/DMR.Controls/WebCams/DisplayImage.ashx?FilePath=\Gold_Coast\MRSCHD-308.jpg:ref<60>
Ok,Caboolture - Morayfield Road / King Street intersection (East),-27.084995,152.951711,#mm:img:http://131940.qld.gov.au/DMR.Controls/WebCams/DisplayImage.ashx?FilePath=\Sunshine_Coast\MRNCHD-426.jpg:ref<60>
Ok,Caboolture River Road - Morayfield (Looking North),-27.105322,152.947479,#mm:img:http://131940.qld.gov.au/DMR.Controls/WebCams/DisplayImage.ashx?FilePath=Sunshine_Coast/caboolture_river.jpg:ref<60>
Ok,Caboolture South - Bribie Island Interchange over Bruce highway (looking South),-27.0858,152.975006,#mm:img:http://131940.qld.gov.au/DMR.Controls/WebCams/DisplayImage.ashx?FilePath=Sunshine_Coast/bribie.jpg:ref<60>
Ok,Cairns North - Captain Cook Highway and Airport Avenue (South),-16.897068,145.755249,#mm:img:http://131940.qld.gov.au/DMR.Controls/WebCams/DisplayImage.ashx?FilePath=Far_North/captain_cook-airport-south.jpg:ref<60>
Ok,Caloundra - Caloundra Road Interchange with the Bruce Highway (looking North),-26.773199,153.042999,#mm:img:http://131940.qld.gov.au/DMR.Controls/WebCams/DisplayImage.ashx?FilePath=Sunshine_Coast/caloundra_opass.jpg:ref<60>
Ok,Caloundra - Caloundra - Forth Avenue intersection (looking East),-26.803818,153.120834,#mm:img:http://131940.qld.gov.au/DMR.Controls/WebCams/DisplayImage.ashx?FilePath=Sunshine_Coast/caloundra-fourth-east.jpg:ref<60>
Ok,Caloundra - Caloundra - Pierce Avenue intersection (looking West),-26.782623,153.085464,#mm:img:http://131940.qld.gov.au/DMR.Controls/WebCams/DisplayImage.ashx?FilePath=Sunshine_Coast/caloundra_rd_west.jpg:ref<60>
Ok,Caravonica - Caravonica Roundabout (South),-16.845646,145.696365,#mm:img:http://131940.qld.gov.au/DMR.Controls/WebCams/DisplayImage.ashx?FilePath=Far_North/captain_cook-carivonica-south.jpg:ref<60>
Ok,Carrara - Gooding Drive and Nerang Broadbeach Road - Gooding Roundabout (East),-28.03233,153.386505,#mm:img:http://131940.qld.gov.au/DMR.Controls/WebCams/DisplayImage.ashx?FilePath=Gold_Coast/nerang-gooding-east.jpg:ref<60>
Ok,Carrara - Pacific Motorway and Nielsens Road (South) Exit 73,-28.015829,153.348831,#mm:img:http://131940.qld.gov.au/DMR.Controls/WebCams/DisplayImage.ashx?FilePath=Gold_Coast/nielsens_pacific-south.jpg:ref<60>
Ok,Chermside - Gympie Road - Webster Road (South-East),-27.373397,153.02276,#mm:img:http://131940.qld.gov.au/DMR.Controls/WebCams/DisplayImage.ashx?FilePath=\Metropolitan\MRMETRO-1213.jpg:ref<60>
Ok,Childers Pedestrian Crossing - Childers (looking north-west),-25.236361,152.278702,#mm:img:http://131940.qld.gov.au/DMR.Controls/WebCams/DisplayImage.ashx?FilePath=Wide_Bay/childers-ped-nthwest.jpg:ref<60>
Ok,Coolum Beach - David Low Way Coolum Pedestrian Crossing (South),-26.531264,153.091964,#mm:img:http://131940.qld.gov.au/DMR.Controls/WebCams/DisplayImage.ashx?FilePath=\Sunshine_Coast\MRNCHD-431.jpg:ref<60>
Ok,Coomera - Pacific Motorway M1 - Exit 54 (South),-27.858,153.3085,#mm:img:http://131940.qld.gov.au/DMR.Controls/WebCams/DisplayImage.ashx?FilePath=\Gold_Coast\MRSCHD-297.jpg:ref<60>
Ok,Currimundi - Nicklin Way / Gannawarra Street (looking south) ( South),-26.766938,153.121983,#mm:img:http://131940.qld.gov.au/DMR.Controls/WebCams/DisplayImage.ashx?FilePath=\Sunshine_Coast\MRNCHD-430.jpg:ref<60>
Ok,Currumbin Waters - Pacific Motorway M1 - Tugun Bypass (South),-28.14599,153.47918,#mm:img:http://131940.qld.gov.au/DMR.Controls/WebCams/DisplayImage.ashx?FilePath=\Gold_Coast\MRSCHD-310.jpg:ref<60>
Ok,Daisy Hill - Pacific Motorway M1 - Exit 24 (North),-27.64373,153.14475,#mm:img:http://131940.qld.gov.au/DMR.Controls/WebCams/DisplayImage.ashx?FilePath=\Gold_Coast\MRSCHD-300.jpg:ref<60>
Ok,Darra - Centenary Motorway - Ipswich Motorway (North),-27.576441,152.945223,#mm:img:http://131940.qld.gov.au/DMR.Controls/WebCams/DisplayImage.ashx?FilePath=\Metropolitan\MRMETRO-1215.jpg:ref<60>
Ok,Deagon - Sandgate Road and Beams Road (South),-27.35339,153.060512,#mm:img:http://131940.qld.gov.au/DMR.Controls/WebCams/DisplayImage.ashx?FilePath=\Metropolitan\MRMETRO-1489.jpg:ref<60>
Ok,Deception Bay - Deception Bay Road / Bay Road intersection (North-West),-27.19669,153.029506,#mm:img:http://131940.qld.gov.au/DMR.Controls/WebCams/DisplayImage.ashx?FilePath=\Sunshine_Coast\MRNCHD-436.jpg:ref<60>
Ok,Dinmore - Ipswich Motorway and Warrego Highway (East),-27.595821,152.841415,#mm:img:http://131940.qld.gov.au/DMR.Controls/WebCams/DisplayImage.ashx?FilePath=Metropolitan/Dinmore_Ipswich_Mwy_east.jpg:ref<60>
Ok,Enoggera - Samford Road and Wardell Street (West),-27.4227,152.9905,#mm:img:http://131940.qld.gov.au/DMR.Controls/WebCams/DisplayImage.ashx?FilePath=\Metropolitan\MRMETRO-1456.jpg:ref<60>
Ok,Everton Park - Old Northern Road - Rogers Parade (North),-27.389182,152.984995,#mm:img:http://131940.qld.gov.au/DMR.Controls/WebCams/DisplayImage.ashx?FilePath=\Metropolitan\MRMETRO-1225.jpg:ref<60>
Ok,Everton Park - South Pine Road - Stafford Road (North),-27.407252,152.990842,#mm:img:http://131940.qld.gov.au/DMR.Controls/WebCams/DisplayImage.ashx?FilePath=\Metropolitan\MRMETRO-1217.jpg:ref<60>
Ok,Ferry Street and Alice Street - Maryborough (looking East),-25.536972,152.694504,#mm:img:http://131940.qld.gov.au/DMR.Controls/WebCams/DisplayImage.ashx?FilePath=Wide_Bay/ferry-alice-cam1-sthwest.jpg:ref<60>
Ok,Ferry Street and Alice Street - Maryborough (looking South West),-25.536682,152.694,#mm:img:http://131940.qld.gov.au/DMR.Controls/WebCams/DisplayImage.ashx?FilePath=Wide_Bay/ferry-alice-cam2-stheast.jpg:ref<60>
Ok,Fig Tree Pocket - Centenary Highway Bridge - Brisbane River (South),-27.524305,152.947648,#mm:img:http://131940.qld.gov.au/DMR.Controls/WebCams/DisplayImage.ashx?FilePath=\Metropolitan\MRMETRO-1226.jpg:ref<60>
Ok,Gateway Bridge (North),-27.455059,153.106995,#mm:img:http://131940.qld.gov.au/DMR.Controls/WebCams/DisplayImage.ashx?FilePath=Metropolitan/gateway.jpg:ref<60>
Ok,Gaven - Pacific Motorway and Smith Street Interchange (South) Exit 66,-27.95083,153.342834,#mm:img:http://131940.qld.gov.au/DMR.Controls/WebCams/DisplayImage.ashx?FilePath=Gold_Coast/m1-smithstreet.jpg:ref<60>
Ok,Goodna - Ipswich Motorway and Railway Terrace (East),-27.601151,152.885498,#mm:img:http://131940.qld.gov.au/DMR.Controls/WebCams/DisplayImage.ashx?FilePath=Metropolitan/Goodna_Ipswich_Mwy_East.jpg:ref<60>
Ok,Helensvale - Pacific Motorway M1 - Exit 60 (North),-27.90817,153.31783,#mm:img:http://131940.qld.gov.au/DMR.Controls/WebCams/DisplayImage.ashx?FilePath=\Gold_Coast\MRSCHD-293.jpg:ref<60>
Ok,Hendra - Airport Drive (East),-27.412331,153.078766,#mm:img:http://131940.qld.gov.au/DMR.Controls/WebCams/DisplayImage.ashx?FilePath=Metropolitan/Hendra_East_West_Art_Nth.jpg:ref<60>
Ok,Horton Parade - Maroochydore -Intersection with Plaza Parade (looking East),-26.656321,153.091949,#mm:img:http://131940.qld.gov.au/DMR.Controls/WebCams/DisplayImage.ashx?FilePath=Sunshine_Coast/horton-first-east.jpg:ref<60>
Ok,Indooroopilly - Western Freeway and Moggill Road (South),-27.500658,152.962738,#mm:img:http://131940.qld.gov.au/DMR.Controls/WebCams/DisplayImage.ashx?FilePath=Metropolitan/Indooroopilly_Western_Fwy_Sth.jpg:ref<60>
Ok,Indooroopilly - Western Freeway and Moggill Road (West),-27.503123,152.963108,#mm:img:http://131940.qld.gov.au/DMR.Controls/WebCams/DisplayImage.ashx?FilePath=\Metropolitan\MRMETRO-1464.jpg:ref<60>
NoURL,Karalee - Warrego Highway - Queensborough Parade (West),-27.57413,152.794483,#mm:img:.\Plugins\Navigator\LiveTraffic\NoURL.png
Ok,Kedron - Gympie Road and Stafford Road (South),-27.41291,153.033569,#mm:img:http://131940.qld.gov.au/DMR.Controls/WebCams/DisplayImage.ashx?FilePath=Metropolitan/Gympie_Stafford_Rd_Sth.jpg:ref<60>
Ok,Kenmore - Moggill Road - Kenmore Road (East),-27.5073,152.9391,#mm:img:http://131940.qld.gov.au/DMR.Controls/WebCams/DisplayImage.ashx?FilePath=\Metropolitan\MRMETRO-1224.jpg:ref<60>
Ok,Kippa-Ring - Anzac Avenue / Elizabeth Avenue / Boardman Road (South-East),-27.226149,153.08456,#mm:img:http://131940.qld.gov.au/DMR.Controls/WebCams/DisplayImage.ashx?FilePath=\Sunshine_Coast\MRNCHD-432.jpg:ref<60>
Ok,Logan Central - Kingston Road and Paradise Road (South),-27.63854,153.11877,#mm:img:http://131940.qld.gov.au/DMR.Controls/WebCams/DisplayImage.ashx?FilePath=\Gold_Coast\MRSCHD-303.jpg:ref<60>
Ok,Macgregor - Mains Road and Kessels Road (East),-27.5612,153.066,#mm:img:http://131940.qld.gov.au/DMR.Controls/WebCams/DisplayImage.ashx?FilePath=\Metropolitan\MRMETRO-1220.jpg:ref<60>
Ok,Macgregor - Mains Road and Kessels Road (North),-27.561,153.0662,#mm:img:http://131940.qld.gov.au/DMR.Controls/WebCams/DisplayImage.ashx?FilePath=\Metropolitan\MRMETRO-1463.jpg:ref<60>
Ok,Main Beach - Gold Coast Highway (South),-27.98612,153.426804,#mm:img:http://131940.qld.gov.au/DMR.Controls/WebCams/DisplayImage.ashx?FilePath=Gold_Coast/gch_theinlet.jpg:ref<60>
Ok,Mango Hill - Bruce Highway and Anzac Avenue (looking South),-27.246557,153.017563,#mm:img:http://131940.qld.gov.au/DMR.Controls/WebCams/DisplayImage.ashx?FilePath=Metropolitan/murrumbadowns_bruce_hwy_sth.jpg:ref<60>
Ok,Maroochydore - Alex Parade and Parker Street (looking south),-26.662153,153.10498,#mm:img:http://131940.qld.gov.au/DMR.Controls/WebCams/DisplayImage.ashx?FilePath=Sunshine_Coast/alex_pde_south.jpg:ref<60>
Ok,Maroochydore - Duporth Avenue / Beach Road (North),-26.650143,153.089398,#mm:img:http://131940.qld.gov.au/DMR.Controls/WebCams/DisplayImage.ashx?FilePath=\Sunshine_Coast\MRNCHD-439.jpg:ref<60>
Ok,Maroochydore - Maroochydore Road / Broadmeadows Road (West),-26.652087,153.082832,#mm:img:http://131940.qld.gov.au/DMR.Controls/WebCams/DisplayImage.ashx?FilePath=\Sunshine_Coast\MRNCHD-427.jpg:ref<60>
Ok,Maroochydore Road - Maroochydore - Hume Street intersection (looking West),-26.658239,153.069397,#mm:img:http://131940.qld.gov.au/DMR.Controls/WebCams/DisplayImage.ashx?FilePath=Sunshine_Coast/maroochydore-hume.jpg:ref<60>
Ok,Mermaid Waters - Bermuda Street and Nerang Broadbeach Road (North),-28.035337,153.408691,#mm:img:http://131940.qld.gov.au/DMR.Controls/WebCams/DisplayImage.ashx?FilePath=Gold_Coast/nerang-bermuda-north.jpg:ref<60>
Ok,Mermaid Waters - Gold Coast Highway and Markeri Street (North),-28.048761,153.435776,#mm:img:http://131940.qld.gov.au/DMR.Controls/WebCams/DisplayImage.ashx?FilePath=Gold_Coast/markeri-GC_Hwy-north.jpg:ref<60>
Ok,Merrimac - Pacific Motorway and Springbrook (North) Exit 77,-28.049486,153.355576,#mm:img:http://131940.qld.gov.au/DMR.Controls/WebCams/DisplayImage.ashx?FilePath=Gold_Coast/springbrook_pacific-north.jpg:ref<60>
Ok,Morayfield - Morayfield Road / Walkers Road intersection (South),-27.11284,152.951437,#mm:img:http://131940.qld.gov.au/DMR.Controls/WebCams/DisplayImage.ashx?FilePath=\Sunshine_Coast\MRNCHD-425.jpg:ref<60>
Ok,Mudgeeraba - Pacific Motorway and Mudgeeraba Road (North) Exit 79,-28.072493,153.363815,#mm:img:http://131940.qld.gov.au/DMR.Controls/WebCams/DisplayImage.ashx?FilePath=Gold_Coast/pacific_mwy-mudgeeraba-north.jpg:ref<60>
Ok,Murarrie - Gateway Motorway and Lytton (South),-27.458,153.1085,#mm:img:http://131940.qld.gov.au/DMR.Controls/WebCams/DisplayImage.ashx?FilePath=\Metropolitan\MRMETRO-1465.jpg:ref<60>
Ok,Murarrie - Port of Brisbane Motorway (West),-27.453256,153.112636,#mm:img:http://131940.qld.gov.au/DMR.Controls/WebCams/DisplayImage.ashx?FilePath=\Metropolitan\MRMETRO-1459.jpg:ref<60>
Ok,Nambour - Coronation Avenue / Bli Bli Road intersection (South),-26.616488,152.968784,#mm:img:http://131940.qld.gov.au/DMR.Controls/WebCams/DisplayImage.ashx?FilePath=\Sunshine_Coast\MRNCHD-428.jpg:ref<60>
Ok,Nambour - Currie Street and Maud Street (looking north),-26.628412,152.959366,#mm:img:http://131940.qld.gov.au/DMR.Controls/WebCams/DisplayImage.ashx?FilePath=Sunshine_Coast/currie_st_north.jpg:ref<60>
Ok,Nerang - Pacific Motorway M1 - Exit 69 (South),-27.98317,153.3415,#mm:img:http://131940.qld.gov.au/DMR.Controls/WebCams/DisplayImage.ashx?FilePath=\Gold_Coast\MRSCHD-309.jpg:ref<60>
Ok,Nerang - Pacific Motorway M1 - Exit 71 (South),-27.99417,153.3405,#mm:img:http://131940.qld.gov.au/DMR.Controls/WebCams/DisplayImage.ashx?FilePath=\Gold_Coast\MRSCHD-306.jpg:ref<60>
Ok,Nicklin Way - Bokarina - Main Drive intersection (looking North),-26.730879,153.129242,#mm:img:http://131940.qld.gov.au/DMR.Controls/WebCams/DisplayImage.ashx?FilePath=Sunshine_Coast/nicklin-main-north.jpg:ref<60>
Ok,Nicklin Way - Buddina - Lutana Street intersection (looking north),-26.70553,153.129883,#mm:img:http://131940.qld.gov.au/DMR.Controls/WebCams/DisplayImage.ashx?FilePath=Sunshine_Coast/nicklin-lutana-south.jpg:ref<60>
Ok,Nicklin Way - Currimundi - Buderim Street intersection (looking North),-26.77334,153.123993,#mm:img:http://131940.qld.gov.au/DMR.Controls/WebCams/DisplayImage.ashx?FilePath=Sunshine_Coast/nicklin-buderim-north.jpg:ref<60>
Ok,Nicklin Way - Minyama - Looking south towards Jessica Boulevard,-26.699465,153.120346,#mm:img:http://131940.qld.gov.au/DMR.Controls/WebCams/DisplayImage.ashx?FilePath=Sunshine_Coast/nicklin_way_minyama.jpg:ref<60>
Ok,Nicklin Way - Wurtulla - Pringa Street intersection (looking South),-26.759199,153.125107,#mm:img:http://131940.qld.gov.au/DMR.Controls/WebCams/DisplayImage.ashx?FilePath=Sunshine_Coast/nicklin-piringa-south.jpg:ref<60>
Ok,North Lakes - Anzac Avenue / Bruce Highway Interchange ( East),-27.246138,153.017354,#mm:img:http://131940.qld.gov.au/DMR.Controls/WebCams/DisplayImage.ashx?FilePath=\Sunshine_Coast\MRNCHD-423.jpg:ref<60>
Ok,North School Pedestrian Crossing - Bundaberg North (looking east),-24.85103,152.339798,#mm:img:http://131940.qld.gov.au/DMR.Controls/WebCams/DisplayImage.ashx?FilePath=Wide_Bay/north-school-ped-east.jpg:ref<60>
Ok,Northgate - Sandgate Road and Toombul Road (North),-27.3767,153.062767,#mm:img:http://131940.qld.gov.au/DMR.Controls/WebCams/DisplayImage.ashx?FilePath=\Metropolitan\MRMETRO-1221.jpg:ref<60>
Ok,Nundah - Sandgate Road and Tunnel Entrance (South),-27.406086,153.060135,#mm:img:http://131940.qld.gov.au/DMR.Controls/WebCams/DisplayImage.ashx?FilePath=Metropolitan/Nundah_Sandgate_Rd_Sth.jpg:ref<60>
Ok,Oxenford - Hope Island Road and Old Pacific Highway (South),-27.88528,153.3141,#mm:img:http://131940.qld.gov.au/DMR.Controls/WebCams/DisplayImage.ashx?FilePath=\Gold_Coast\MRSCHD-302.jpg:ref<60>
Ok,Oxenford - Pacific Motorway M1 - Exit 57 (South),-27.88522,153.31494,#mm:img:http://131940.qld.gov.au/DMR.Controls/WebCams/DisplayImage.ashx?FilePath=\Gold_Coast\MRSCHD-299.jpg:ref<60>
Ok,Pacific Highway - Grandis Street (North),-27.66411,153.172607,#mm:img:http://131940.qld.gov.au/DMR.Controls/WebCams/DisplayImage.ashx?FilePath=Gold_Coast/GrandisNth.jpg:ref<60>
Ok,Pacific Highway - Grandis Street (South),-27.664339,153.172806,#mm:img:http://131940.qld.gov.au/DMR.Controls/WebCams/DisplayImage.ashx?FilePath=Gold_Coast/GrandisSth.jpg:ref<60>
Ok,Palm Beach - 19th Avenue and Pacific Motorway - M1 (North),-28.11733,153.453,#mm:img:http://131940.qld.gov.au/DMR.Controls/WebCams/DisplayImage.ashx?FilePath=\Gold_Coast\MRSCHD-396.jpg:ref<60>
Ok,Park Ridge - Mount Lindesay Highway and Park Ridge Road Interchange (South),-27.699203,153.038655,#mm:img:http://131940.qld.gov.au/DMR.Controls/WebCams/DisplayImage.ashx?FilePath=\Gold_Coast\MRSCHD-295.jpg:ref<60>
Ok,Petrie - Anzac Avenue / Dayboro Road / Gympie Road Roundabout (South-West),-27.269218,152.97931,#mm:img:http://131940.qld.gov.au/DMR.Controls/WebCams/DisplayImage.ashx?FilePath=\Sunshine_Coast\MRNCHD-433.jpg:ref<60>
Ok,Petrie - Anzac Avenue / Dohles Rock Road / Narangba Road (North-East),-27.255134,152.981542,#mm:img:http://131940.qld.gov.au/DMR.Controls/WebCams/DisplayImage.ashx?FilePath=\Sunshine_Coast\MRNCHD-429.jpg:ref<60>
Ok,Quay Street Pedestrian Crossing - Bundaberg Central (looking west),-24.864574,152.349533,#mm:img:http://131940.qld.gov.au/DMR.Controls/WebCams/DisplayImage.ashx?FilePath=Wide_Bay/quay-ped-west.jpg:ref<60>
Ok,Quintin and McDowall Street - Roma (North),-26.571289,148.787094,#mm:img:http://131940.qld.gov.au/DMR.Controls/WebCams/DisplayImage.ashx?FilePath=South_West/carnarvon-north.jpg:ref<60>
Ok,Quintin and McDowall Street - Roma (South),-26.571402,148.786926,#mm:img:http://131940.qld.gov.au/DMR.Controls/WebCams/DisplayImage.ashx?FilePath=South_West/carnarvon-south.jpg:ref<60>
Ok,Redcliffe - Houghton Highway (South),-27.26235,153.080032,#mm:img:http://131940.qld.gov.au/DMR.Controls/WebCams/DisplayImage.ashx?FilePath=Metropolitan/Redcliffe_Houghton_Hwy_Sth.jpg:ref<60>
Ok,Riverside Expressway - Mercure Hotel (South),-27.47023,153.020798,#mm:img:http://131940.qld.gov.au/DMR.Controls/WebCams/DisplayImage.ashx?FilePath=Metropolitan/mecure.jpg:ref<60>
Ok,Robina - Robina Parkway Exit 82 - Pacific Motorway (North),-28.0836,153.3794,#mm:img:http://131940.qld.gov.au/DMR.Controls/WebCams/DisplayImage.ashx?FilePath=/gold_coast/MRSCHD-494.jpg:ref<60>
Ok,Rochedale - Gateway Motorway and Miles Platting Road (South),-27.577724,153.105713,#mm:img:http://131940.qld.gov.au/DMR.Controls/WebCams/DisplayImage.ashx?FilePath=Metropolitan/rochedale_gateway_mwy_sth.jpg:ref<60>
Ok,Rochedale - Pacific Motorway and Gateway Overpass (South),-27.58131,153.103241,#mm:img:http://131940.qld.gov.au/DMR.Controls/WebCams/DisplayImage.ashx?FilePath=Metropolitan/Rochedale_Pac_Mwy_Sth.jpg:ref<60>
Ok,Rochedale South - Pacific Motorway M1 - Exit 19 (North),-27.60672,153.1197,#mm:img:http://131940.qld.gov.au/DMR.Controls/WebCams/DisplayImage.ashx?FilePath=\Gold_Coast\MRSCHD-298.jpg:ref<60>
Ok,Sims Road and Barolin Street - Walkervale (looking south),-24.888868,152.358322,#mm:img:http://131940.qld.gov.au/DMR.Controls/WebCams/DisplayImage.ashx?FilePath=Wide_Bay/sims-barolin-south.jpg:ref<60>
Ok,Slacks Creek - Pacific Motorway M1 - Exit 23 (North),-27.63788,153.13754,#mm:img:http://131940.qld.gov.au/DMR.Controls/WebCams/DisplayImage.ashx?FilePath=\Gold_Coast\MRSCHD-294.jpg:ref<60>
NoURL,Southport - Ferry Road / Queen Street (South),-27.97117,153.40983,#mm:img:.\Plugins\Navigator\LiveTraffic\NoURL.png
Ok,Southport - Smith and Kumbari Street (East),-27.961861,153.395142,#mm:img:http://131940.qld.gov.au/DMR.Controls/WebCams/DisplayImage.ashx?FilePath=Gold_Coast/smith-kumbari-east.jpg:ref<60>
Ok,Southport - Smith Street and Olsen Avenue (East),-27.96467,153.3765,#mm:img:http://131940.qld.gov.au/DMR.Controls/WebCams/DisplayImage.ashx?FilePath=\Gold_Coast\MRSCHD-395.jpg:ref<60>
Ok,Strathpine - Gympie Road - Sampsonvale Road - Bells Pocket Road (South),-27.301586,152.988421,#mm:img:http://131940.qld.gov.au/DMR.Controls/WebCams/DisplayImage.ashx?FilePath=\Sunshine_Coast\MRNCHD-424.jpg:ref<60>
Ok,Sunshine Motorway - Buderim -Sippy Downs overpass (looking West),-26.711651,153.071487,#mm:img:http://131940.qld.gov.au/DMR.Controls/WebCams/DisplayImage.ashx?FilePath=Sunshine_Coast/sun_mwy_bud.jpg:ref<60>
Ok,Sunshine Motorway - Pacific Paradise -David Low Way interchange(looking South),-26.620501,153.070999,#mm:img:http://131940.qld.gov.au/DMR.Controls/WebCams/DisplayImage.ashx?FilePath=Sunshine_Coast/dlow-way-sth.jpg:ref<60>
Ok,Takalvan Street and Heidke Street - Svensson Heights (looking north-east),-24.887619,152.320999,#mm:img:http://131940.qld.gov.au/DMR.Controls/WebCams/DisplayImage.ashx?FilePath=Wide_Bay/takalvan-heike-ntheast.jpg:ref<60>
Ok,Takalvan Street and Walker Street - Svensson Heights (looking south-east),-24.877094,152.329956,#mm:img:http://131940.qld.gov.au/DMR.Controls/WebCams/DisplayImage.ashx?FilePath=Wide_Bay/takalvan-walker-ntheast.jpg:ref<60>
Ok,Toowong - Mount Cootha and Miskin Street (West),-27.478359,152.984955,#mm:img:http://131940.qld.gov.au/DMR.Controls/WebCams/DisplayImage.ashx?FilePath=Metropolitan/Toowong_MtCootha_West.jpg:ref<60>
Ok,Toowoomba Range - Bottom (East toward Helidon),-27.562122,152.004745,#mm:img:http://131940.qld.gov.au/DMR.Controls/WebCams/DisplayImage.ashx?FilePath=Darling_Downs/toowoomba-range-bottom-helidon.jpg:ref<60>
Ok,Toowoomba Range - Bottom (Looking up - west),-27.562166,152.004684,#mm:img:http://131940.qld.gov.au/DMR.Controls/WebCams/DisplayImage.ashx?FilePath=Darling_Downs/toowoomba-range-bottom-west.jpg:ref<60>
Ok,Toowoomba Range - Saddle (East),-27.568651,151.994049,#mm:img:http://131940.qld.gov.au/DMR.Controls/WebCams/DisplayImage.ashx?FilePath=Darling_Downs/toowoomba-saddle-east.jpg:ref<60>
Ok,Toowoomba Range - Saddle (West),-27.568727,151.993881,#mm:img:http://131940.qld.gov.au/DMR.Controls/WebCams/DisplayImage.ashx?FilePath=Darling_Downs/toowoomba-saddle-west.jpg:ref<60>
Ok,Toowoomba Range - Top (East),-27.565611,151.975906,#mm:img:http://131940.qld.gov.au/DMR.Controls/WebCams/DisplayImage.ashx?FilePath=Darling_Downs/toowoomba_range-east.jpg:ref<60>
Ok,Toowoomba Range - Top (South to Cohoe Street),-27.566212,151.975693,#mm:img:http://131940.qld.gov.au/DMR.Controls/WebCams/DisplayImage.ashx?FilePath=Darling_Downs/toowoomba_range-cohoe-south.jpg:ref<60>
Ok,Tugun - Gold Coast Highway and Wyberba Street (South),-28.142607,153.492462,#mm:img:http://131940.qld.gov.au/DMR.Controls/WebCams/DisplayImage.ashx?FilePath=Gold_Coast/pacific_mwy-tugun-south.jpg:ref<60>
Ok,Upper Mount Gravatt - Pacific Motorway and Klumpp Road (North),-27.549946,153.066635,#mm:img:http://131940.qld.gov.au/DMR.Controls/WebCams/DisplayImage.ashx?FilePath=Metropolitan/Upper_MtGravatt_Pac_Mwy_Nth.jpg:ref<60>
Ok,Varsity Lakes - Pacific Motorway M1 - Exit 84 (North),-28.1,153.40167,#mm:img:http://131940.qld.gov.au/DMR.Controls/WebCams/DisplayImage.ashx?FilePath=\Gold_Coast\MRSCHD-304.jpg:ref<60>
Ok,Whinstanes - Gateway Motorway - Kingsford Smith Drive (North),-27.43505,153.085317,#mm:img:http://131940.qld.gov.au/DMR.Controls/WebCams/DisplayImage.ashx?FilePath=\Metropolitan\MRMETRO-1219.jpg:ref<60>
Ok,Whinstanes - Gateway Motorway and Links Avenue (North),-27.434759,153.085297,#mm:img:http://131940.qld.gov.au/DMR.Controls/WebCams/DisplayImage.ashx?FilePath=Metropolitan/Whinstanes_Gateway_Mwy_Nth.jpg:ref<60>
Ok,White Rock - Bruce Highway and Sheehy Road (South),-16.97386,145.744171,#mm:img:http://131940.qld.gov.au/DMR.Controls/WebCams/DisplayImage.ashx?FilePath=Far_North/bruce-sheehy-south.jpg:ref<60>
Ok,Wishart - Mount Gravatt-Capalaba Road (East),-27.5457,153.1128,#mm:img:http://131940.qld.gov.au/DMR.Controls/WebCams/DisplayImage.ashx?FilePath=\Metropolitan\MRMETRO-1460.jpg:ref<60>
Ok,Woolloongabba - Pacific Motorway - Arrow Street (North-West),-27.495117,153.038083,#mm:img:http://131940.qld.gov.au/DMR.Controls/WebCams/DisplayImage.ashx?FilePath=\Metropolitan\MRMETRO-1214.jpg:ref<60>
Ok,Woree - Ray Jones Drive and Mulgrave Road Intersection (south),-16.953621,145.74704,#mm:img:http://131940.qld.gov.au/DMR.Controls/WebCams/DisplayImage.ashx?FilePath=Far_North/bruce-ray_jones-south.jpg:ref<60>
Ok,Worongary - Elysium Road Exit 75 Pacific Motorway (North),-28.03341,153.3521,#mm:img:http://131940.qld.gov.au/DMR.Controls/WebCams/DisplayImage.ashx?FilePath=/gold_coast/MRSCHD-495.jpg:ref<60>
Ok,Yatala - Pacific Motorway M1 - Exit 41 (South),-27.75493,153.2378,#mm:img:http://131940.qld.gov.au/DMR.Controls/WebCams/DisplayImage.ashx?FilePath=\Gold_Coast\MRSCHD-307.jpg:ref<60>
